[
  {
    "id": "4b0587dbf964a5207da422e3",
    "name": "Wankhede Stadium",
    "location": {
      "address": "Marine Drive",
      "lat": 18.938792382629718,
      "lng": 72.82594448102758
    }
  },
  {
    "id": "4b0587d1f964a520d1a222e3",
    "name": "Marine Drive",
    "location": {
      "address": "Marine Drive",
      "lat": 18.941220560803895,
      "lng": 72.82326137405234
    }
  },
  {
    "id": "4e0b2604814dac5b11ca6f9b",
    "name": "Queen's Necklace",
    "location": {
      "address": "Marine Drive",
      "lat": 18.933982645438288,
      "lng": 72.82389609019086
    }
  },
  {
    "id": "4bc455d174a9a593a2a2d5f6",
    "name": "The Cricket Club Of India (CCI)",
    "location": {
      "address": "Dinshaw Vacha Rd.",
      "crossStreet": "Churchgate",
      "lat": 18.9319640579446,
      "lng": 72.82463550567627
    }
  },
  {
    "id": "4b0587e6f964a52068a622e3",
    "name": "Bombay Gymkhana",
    "location": {
      "address": "Mahatma Gandhi Road",
      "lat": 18.937691299778436,
      "lng": 72.83097627498172
    }
  },
  {
    "id": "4c14f8be82a3c9b6b6fefdf8",
    "name": "Nariman Point",
    "location": {
      "address": "Nariman Point",
      "crossStreet": "Dorabji Tata Road",
      "lat": 18.92918335830556,
      "lng": 72.82223224639893
    }
  },
  {
    "id": "4b0587d1f964a520d0a222e3",
    "name": "Flora Fountain",
    "location": {
      "address": "Veer Nariman Road",
      "crossStreet": "D. N. Road, Fort",
      "lat": 18.932703970456927,
      "lng": 72.83140292594574
    }
  },
  {
    "id": "4b0587d3f964a5203ca322e3",
    "name": "Jehangir Art Gallery",
    "location": {
      "address": "161 Mahatma Gandhi Road",
      "crossStreet": "Kala Ghoda",
      "lat": 18.927606328364668,
      "lng": 72.8314638434005
    }
  },
  {
    "id": "4b0587e6f964a5203fa622e3",
    "name": "Oval Maidan",
    "location": {
      "address": "Maharshi Karve Road",
      "lat": 18.92977197741943,
      "lng": 72.82890558242798
    }
  },

  {
    "id": "4b0587d1f964a520d4a222e3",
    "name": "Horniman Circle",
    "location": {
      "address": "Off Shahid Bhagat Singh Road",
      "crossStreet": "near Asiatic Library",
      "lat": 18.93225911856314,
      "lng": 72.83451868542195
    }
  }
]
